[{"49":{"name_en":"HILLAZON-YASUR","name_he":"חילזון-יסעור","lat":32.8948097229004,"lon":35.1782989501953,"zoom":2,"threshold":[17,37,48,60,81,95],"envista_id":[205,null,null,null],"owner_id":2,"level_flow_start":0.16},"50":{"name_en":"Dalyya-Tel Aviv-Haifa Road","name_he":"דליה כביש תא-חיפה","lat":32.5951995849609,"lon":34.9478988647461,"zoom":2,"threshold":[7,22,37,55,87,130],"envista_id":[45,67,null,null],"owner_id":2,"level_flow_start":0.1},"51":{"name_en":"Daliyyot","name_he":"דליות-בית צידה","lat":32.8845291137695,"lon":35.6622200012207,"zoom":2,"threshold":[15,39,64,96,153,211],"envista_id":[null,null,null,null],"owner_id":2,"level_flow_start":0.1},"52":{"name_en":"Besor-Reim","name_he":"בשור-רעים","lat":31.3871002197266,"lon":34.4505004882812,"zoom":2,"threshold":[38,125,226,363,617,887],"envista_id":[459,98,112,58],"owner_id":2,"level_flow_start":0.1},"53":{"name_en":"Alexander-Elyashiv","name_he":"אלכסנדר-אליישיב","lat":32.3736190795898,"lon":34.9052543640137,"zoom":1,"threshold":[36,91,129,164,211,250],"envista_id":[107,null,null,null],"owner_id":2,"level_flow_start":0.2},"54":{"name_en":"Lachish-Ad Halom Park","name_he":"לכיש-עד הלום","lat":31.7868995666504,"lon":34.671199798584,"zoom":1,"threshold":[59,133,187,238,450,550],"envista_id":[236,121,77,25],"owner_id":2,"level_flow_start":0.3},"55":{"name_en":"Senir-Dan Road Bridge","name_he":"שניר-כביש לדן","lat":33.2238006591797,"lon":35.6156997680664,"zoom":2,"threshold":[65,116,138,156,163,168],"envista_id":[263,241,null,null],"owner_id":2,"level_flow_start":0.1},"56":{"name_en":"Amud","name_he":"עמוד","lat":32.8553619384766,"lon":35.5216751098633,"zoom":2,"threshold":[5,13,21,34,54,73],"envista_id":[123,99,null,null],"owner_id":2,"level_flow_start":0.1},"57":{"name_en":"Harod","name_he":"חרוד-כביש 90","lat":32.5063018798828,"lon":35.5204010009766,"zoom":2,"threshold":[11,21,37,65,138,203],"envista_id":[442,16,224,532],"owner_id":2,"level_flow_start":0.375},"58":{"name_en":"Ramon","name_he":"רמון","lat":30.6144008636475,"lon":34.8600997924805,"zoom":1,"threshold":[9,28,42,56,76,92],"envista_id":[438,null,null,null],"owner_id":2,"level_flow_start":0.03},"59":{"name_en":"Yarkon-Herzelia_road","name_he":"ירקון-כביש להרצליה","lat":32.1048011779785,"lon":34.8288993835449,"zoom":1,"threshold":[53,138,211,292,413,517],"envista_id":[20,21,275,null],"owner_id":2,"level_flow_start":0.1},"60":{"name_en":"Dishon RP Metula Rd","name_he":"דישון-כביש ראש פינה-מטולה","lat":33.0423011779785,"lon":35.5728988647461,"zoom":2,"threshold":[5,13,18,24,29,33],"envista_id":[353,null,null,null],"owner_id":2,"level_flow_start":0.1},"61":{"name_en":"Qishon-Quarry","name_he":"קישון-מחצבה","lat":32.7234001159668,"lon":35.0993003845215,"zoom":1,"threshold":[35,83,131,190,278,362],"envista_id":[null,null,null,null],"owner_id":2,"level_flow_start":0.4},"62":{"name_en":"Orvim","name_he":"עורבים-להבות הבשן","lat":33.144100189209,"lon":35.638500213623,"zoom":1,"threshold":[8,18,23,30,34,37],"envista_id":[10,null,null,null],"owner_id":2,"level_flow_start":0.1},"63":{"name_en":"Meshushim","name_he":"משושים-דרדרה","lat":32.9101982116699,"lon":35.6523017883301,"zoom":1,"threshold":[63,128,172,211,256,285],"envista_id":[10,null,null,null],"owner_id":2,"level_flow_start":0.2},"64":{"name_en":"Shikma-Beror Hayil","name_he":"שקמה-ברור חייל","lat":31.548999786377,"lon":34.625,"zoom":1,"threshold":[16,45,72,119,164,220],"envista_id":[null,null,null,null],"owner_id":2,"level_flow_start":0.15},"65":{"name_en":"Grar-Reim","name_he":"גרר-רעים","lat":31.3997993469238,"lon":34.4443016052246,"zoom":1,"threshold":[18,55,93,163,237,334],"envista_id":[357,350,258,null],"owner_id":2,"level_flow_start":0.1},"66":{"name_en":"Barqan-Kefar Glickson","name_he":"ברקן-כפר גליקסון","lat":32.5017013549805,"lon":35.0007019042969,"zoom":2,"threshold":[8,20,30,40,56,87],"envista_id":[null,null,null,null],"owner_id":2,"level_flow_start":0.14},"67":{"name_en":"Taninim-Amiqam","name_he":"תנינים עמיקם","lat":32.5545196533203,"lon":35.0095977783203,"zoom":1,"threshold":[6,15,24,38,50,65],"envista_id":[67,263,null,null],"owner_id":2,"level_flow_start":0.1},"68":{"name_en":"Zipori-Tel Alil","name_he":"ציפורי-תל עליל","lat":32.7672500610352,"lon":35.1532554626465,"zoom":1,"threshold":[4,12,19,23,45,95],"envista_id":[null,null,null,null],"owner_id":2,"level_flow_start":0.19},"69":{"name_en":"Adurayim-Railway bridge","name_he":"אדוריים-גשר הרכבת","lat":31.5303993225098,"lon":34.7807006835938,"zoom":1,"threshold":[7.5,25,45,75,136,207],"envista_id":[350,236,null,null],"owner_id":2,"level_flow_start":0.1},"70":{"name_en":"Ada-Givat Ada","name_he":"עדה-גבעת עדה","lat":32.5189018249512,"lon":34.9989013671875,"zoom":1,"threshold":[3,10,16,25,40,60],"envista_id":[263,null,null,null],"owner_id":2,"level_flow_start":0.1},"71":{"name_en":"Soreq-Yesodot","name_he":"שורק-יסודות","lat":31.8085994720459,"lon":34.847900390625,"zoom":1,"threshold":[19,49,74,101,140,173],"envista_id":[75,259,121,188],"owner_id":2,"level_flow_start":0.1},"72":{"name_en":"Gamliel - Rd 42","name_he":"גמליאל-כביש 42","lat":31.8997001647949,"lon":34.7615013122559,"zoom":1,"threshold":[32,72,100,124,151,170],"envista_id":[74,121,259,188],"owner_id":2,"level_flow_start":0.1},"73":{"name_en":"Jordan-Nehemya","name_he":"ירדן-שדה נחמיה","lat":33.1811485290527,"lon":35.6156692504883,"zoom":2,"threshold":[120,193,219,235,240,243],"envista_id":[202,263,241,null],"owner_id":2,"level_flow_start":0.1},"74":{"name_en":"Yehudiya","name_he":"יהודיה-בית צידה","lat":32.8986625671387,"lon":35.6510963439941,"zoom":3,"threshold":[36,72,100,125,157,178],"envista_id":[10,null,null,null],"owner_id":2,"level_flow_start":0.1},"75":{"name_en":"Iyyon-Metulla","name_he":"עיון-מטולה","lat":33.2820014953613,"lon":35.5836982727051,"zoom":1,"threshold":[3,7,9,12,13,14],"envista_id":[null,null,null,null],"owner_id":2,"level_flow_start":0.1},"76":{"name_en":"Beer Sheva-Hazerim","name_he":"באר שבע-חצרים","lat":31.2292995452881,"lon":34.747200012207,"zoom":1,"threshold":[74,179,303,470,784,1119],"envista_id":[349,29,28,350],"owner_id":2,"level_flow_start":0.1},"77":{"name_en":"Hazor-Ayelet Hashahar","name_he":"חצור-איילת השחר","lat":33.0232009887695,"lon":35.584300994873,"zoom":4,"threshold":[2,5,8,11,13,16],"envista_id":[62,null,null,null],"owner_id":2,"level_flow_start":0.1},"78":{"name_en":"Zalmon","name_he":"צלמון","lat":32.8446998596191,"lon":35.5161018371582,"zoom":1,"threshold":[3,9,15,23,38,52],"envista_id":[123,205,99,null],"owner_id":2,"level_flow_start":0.25},"79":{"name_en":"Jordan-Pkak","name_he":"ירדן-גשר הפקק","lat":33.0404014587402,"lon":35.6306991577148,"zoom":1,"threshold":[107,129,146,167,183,198],"envista_id":[null,10,null,null],"owner_id":2,"level_flow_start":0.1},"80":{"name_en":"Bietarif","name_he":"בית עריף","lat":32.0099983215332,"lon":34.9165000915527,"zoom":1,"threshold":[8,20,31,43,55,70],"envista_id":[24,null,null,null],"owner_id":2,"level_flow_start":0.1},"254":{"name_en":"Hadera-GanShemuel","name_he":"חדרה - גן שמואל","lat":32.439826965332,"lon":34.9532470703125,"zoom":1,"threshold":[32,91,138,190,270,330],"envista_id":[107,null,null,null],"owner_id":2,"level_flow_start":0.1},"255":{"name_en":"Gaaton - BenAmmi h.","name_he":"געתון - בן עמי ח.","lat":32.9999008178711,"lon":35.1309013366699,"zoom":4,"threshold":[2.3,7,11,16,26,35],"envista_id":[null,null,null,null],"owner_id":2,"level_flow_start":0.2},"257":{"name_en":"Soreq-Hartuv","name_he":"שורק הר טוב","lat":31.7581996917725,"lon":34.9950981140137,"zoom":1,"threshold":[10,30,48,68,101,130],"envista_id":[75,22,186,23],"owner_id":2,"level_flow_start":0.1},"259":{"name_en":"Qana-Yarhiv","name_he":"קנה-ירחיב","lat":32.1467018127441,"lon":34.9611015319824,"zoom":1,"threshold":[16,31,47,70,108,150],"envista_id":[20,21,541,null],"owner_id":2,"level_flow_start":0.1},"260":{"name_en":"Haela-Tel Zafit","name_he":"האלה-תל צפית","lat":31.7049007415771,"lon":34.8422012329102,"zoom":1,"threshold":[4,14,24,39,67,100],"envista_id":[77,25,null,null],"owner_id":2,"level_flow_start":0.1},"261":{"name_en":"Saar-Masada","name_he":"סער-מסעדה","lat":33.2402992248535,"lon":35.7620010375977,"zoom":1,"threshold":[12,16,19,24,27,30],"envista_id":[null,null,null,null],"owner_id":2,"level_flow_start":0.18},"262":{"name_en":"Natuf-Elal","name_he":"נטוף-אל על","lat":31.9839992523193,"lon":34.9044990539551,"zoom":1,"threshold":[11,30,88,128,181,219],"envista_id":[24,null,null,null],"owner_id":2,"level_flow_start":0.1},"291":{"name_en":"AylonNatbag","name_he":"איילון נתבג","lat":32.0071258544922,"lon":34.8617935180664,"zoom":1,"threshold":[50,111,164,227,298,361],"envista_id":[188,259,24,null],"owner_id":2,"level_flow_start":0.1},"292":{"name_en":"Gan Yavne","name_he":"האלה - גן יבנה","lat":31.7816600799561,"lon":34.6806488037109,"zoom":1,"threshold":[45,99,135,167,203,230],"envista_id":[121,77,25,null],"owner_id":2,"level_flow_start":0.1},"293":{"name_en":"Yavniel","name_he":"יבניאל","lat":32.696647644043,"lon":35.544017791748,"zoom":1,"threshold":[9,15,30,66,100,130],"envista_id":[11,null,null,null],"owner_id":2,"level_flow_start":0.1},"295":{"name_en":"Hayun","name_he":"חיון","lat":30.1861782073975,"lon":35.0104942321777,"zoom":1,"threshold":[16,58,101,144,291,500],"envista_id":[null,null,null,null],"owner_id":2,"level_flow_start":0.3},"296":{"name_en":"Ketzev","name_he":"קצב","lat":30.1537685394287,"lon":35.0236663818359,"zoom":1,"threshold":[20,39,51,87,165,260],"envista_id":[null,null,null,null],"owner_id":2,"level_flow_start":0.03},"297":{"name_en":"HermonKvish","name_he":"חרמון-כביש לכפר סאלד","lat":33.2161903381348,"lon":35.6401596069336,"zoom":3,"threshold":[43,65,80,100,114,128],"envista_id":[263,null,null,null],"owner_id":2,"level_flow_start":0.1},"298":{"name_en":"Ekron","name_he":"עקרון בית אלעזרי","lat":31.8372001647949,"lon":34.7820014953613,"zoom":1,"threshold":[25,52,71,89,109,122],"envista_id":[null,null,null,null],"owner_id":2,"level_flow_start":0.1},"299":{"name_en":"NahalDan","name_he":"דן שמורת טבע","lat":33.2457008361816,"lon":35.6484985351562,"zoom":3,"threshold":[999,999,999,999,999,999],"envista_id":[263,null,null,null],"owner_id":2,"level_flow_start":0.1},"310":{"name_en":"Betzet - Rd. 4","name_he":"בצת - כביש 4","lat":33.0753211975098,"lon":35.1148872375488,"zoom":3,"threshold":[999,999,999,999,999,999],"envista_id":[73,null,null,null],"owner_id":2,"level_flow_start":0.1},"311":{"name_en":"Lud","name_he":"איילון - לוד","lat":31.9587535858154,"lon":34.9042930603027,"zoom":1,"threshold":[13,43,68,100,144,185],"envista_id":[null,null,null,null],"owner_id":2,"level_flow_start":0.1},"312":{"name_en":"Jorden gesher","name_he":"ירדן - גשר","lat":32.6247863769531,"lon":35.5643424987793,"zoom":1,"threshold":[999,999,999,999,999,999],"envista_id":[null,null,null,null],"owner_id":15,"level_flow_start":0.1},"313":{"name_en":"Yasaf","name_he":"יסף","lat":32.9583129882812,"lon":35.0940437316895,"zoom":2,"threshold":[999,999,999,999,999,999],"envista_id":[343,269,null,null],"owner_id":16,"level_flow_start":0.1},"316":{"name_en":"Jordan Kasr El Jahud new","name_he":"ירדן-אתר טבילה","lat":31.8370037078857,"lon":35.5467491149902,"zoom":1,"threshold":[15,40,75,120,200,400],"envista_id":[null,null,null,null],"owner_id":12,"level_flow_start":0.1},"317":{"name_en":"Shapirim","name_he":"שפירים מעלה","lat":31.9738445281982,"lon":34.8725395202637,"zoom":1,"threshold":[28,37,47,55,68,85],"envista_id":[188,259,null,null],"owner_id":18,"level_flow_start":0.1},"326":{"name_en":"Kinet","name_he":"קינט","lat":29.5921497344971,"lon":34.9854316711426,"zoom":1,"threshold":[999,999,999,999,999,999],"envista_id":[null,null,null,null],"owner_id":2,"level_flow_start":0.1},"327":{"name_en":"GaleyKinneret","name_he":"מפלס כנרת","lat":32.8233451843262,"lon":35.5850601196289,"zoom":0,"threshold":[999,999,999,999,999,999],"envista_id":[null,null,null,null],"owner_id":2,"level_flow_start":0.1},"328":{"name_en":"Sorek21","name_he":"שורק-כביש גדרה בילו","lat":31.8323593139648,"lon":34.7824287414551,"zoom":1,"threshold":[8,21,32,44,61,76],"envista_id":[75,259,121,188],"owner_id":2,"level_flow_start":0.1},"331":{"name_en":"Semech","name_he":"סמך","lat":32.829158782959,"lon":35.6519317626953,"zoom":1,"threshold":[8,23,37,53,81,108],"envista_id":[2,null,null,null],"owner_id":2,"level_flow_start":0.1},"341":{"name_en":"HaderaAyyeka","name_he":"חדרה","lat":32.4098281860352,"lon":35.0218315124512,"zoom":1,"threshold":[999,999,999,999,999,999],"envista_id":[null,null,null,null],"owner_id":21,"level_flow_start":0.1},"342":{"name_en":"Haviva","name_he":"חביבה","lat":32.3827896118164,"lon":35.0218315124512,"zoom":1,"threshold":[999,999,999,999,999,999],"envista_id":[null,null,null,null],"owner_id":21,"level_flow_start":0.1},"345":{"name_en":"BatShlomo","name_he":"דליה בת שלמה","lat":32.5910911560059,"lon":34.9871482849121,"zoom":1,"threshold":[6,17,29,45,70,101],"envista_id":[45,67,null,null],"owner_id":2,"level_flow_start":0.1},"346":{"name_en":"Arugot","name_he":"ערוגות","lat":31.458288192749,"lon":35.3897285461426,"zoom":1,"threshold":[23,89,163,309,472,703],"envista_id":[77,null,null,null],"owner_id":12,"level_flow_start":0.09},"347":{"name_en":"IronKvish","name_he":"עירון","lat":32.4542503356934,"lon":35.009708404541,"zoom":1,"threshold":[6,16,25,39,53,70],"envista_id":[null,null,null,null],"owner_id":2,"level_flow_start":0.1},"348":{"name_en":"Rahaf","name_he":"רחף","lat":31.2957153320312,"lon":35.3748092651367,"zoom":1,"threshold":[20,82,152,255,468,719],"envista_id":[29,null,null,null],"owner_id":2,"level_flow_start":0.03},"349":{"name_en":"Zeelim","name_he":"צאלים","lat":31.3521785736084,"lon":35.3503265380859,"zoom":1,"threshold":[35,80,160,267,472,703],"envista_id":[null,null,null,null],"owner_id":12,"level_flow_start":0.03},"350":{"name_en":"Dafna","name_he":"פלג דפנה","lat":33.2332496643066,"lon":35.6363792419434,"zoom":1,"threshold":[999,999,999,999,999,999],"envista_id":[263,null,null,null],"owner_id":2,"level_flow_start":0.1},"351":{"name_en":"Tal","name_he":"פלג טל","lat":33.2331199645996,"lon":35.6357803344727,"zoom":1,"threshold":[999,999,999,999,999,999],"envista_id":[263,null,null,null],"owner_id":2,"level_flow_start":0.1},"354":{"name_en":"PaldiDarom","name_he":"פרשל פלדי דרומי","lat":33.2315711975098,"lon":35.6257514953613,"zoom":1,"threshold":[999,999,999,999,999,999],"envista_id":[263,null,null,null],"owner_id":2,"level_flow_start":0.1},"355":{"name_en":"SnirMaayan","name_he":"שניר מעין ברוך","lat":33.2377090454102,"lon":35.6244888305664,"zoom":3,"threshold":[56,108,136,1156,176,186],"envista_id":[263,null,null,null],"owner_id":2,"level_flow_start":0.1},"378":{"name_en":"Ashalim","name_he":"אשלים במעלה","lat":31.065860748291,"lon":35.3300895690918,"zoom":1,"threshold":[5,20,44,88,135,314],"envista_id":[65,29,112,null],"owner_id":14,"level_flow_start":0.03},"382":{"name_en":"Zin90","name_he":"צין - כביש הערבה","lat":30.9458808898926,"lon":35.2980613708496,"zoom":1,"threshold":[33,154,200,290,520,750],"envista_id":[65,438,112,98],"owner_id":12,"level_flow_start":0.09},"383":{"name_en":"Raba","name_he":"רבה","lat":32.0985984802246,"lon":34.9473190307617,"zoom":1,"threshold":[999,999,999,999,999,999],"envista_id":[21,20,null,null],"owner_id":18,"level_flow_start":0.1},"387":{"name_en":"Kalil","name_he":"קליל","lat":33.1526489257812,"lon":35.6279487609863,"zoom":1,"threshold":[999,999,999,999,999,999],"envista_id":[202,10,null,null],"owner_id":2,"level_flow_start":0.1},"388":{"name_en":"Kziv","name_he":"כזיב","lat":33.0510368347168,"lon":35.1058044433594,"zoom":1,"threshold":[8.1,24,38,53,75,95],"envista_id":[73,null,null,null],"owner_id":2,"level_flow_start":0.1},"389":{"name_en":"Beit Haemek","name_he":"בית העמק","lat":32.9853858947754,"lon":35.0948600769043,"zoom":3,"threshold":[6,17,34,46,55,65],"envista_id":[269,343,null,null],"owner_id":2,"level_flow_start":0.15},"392":{"name_en":"Harel","name_he":"הראל","lat":31.8008117675781,"lon":34.9507675170898,"zoom":1,"threshold":[1,3,5,7,13,19],"envista_id":[259,188,null,null],"owner_id":2,"level_flow_start":0.1},"393":{"name_en":"Govrin","name_he":"גוברין","lat":31.7052841186523,"lon":34.723991394043,"zoom":1,"threshold":[14,23,40,62,102,144],"envista_id":[236,77,25,null],"owner_id":2,"level_flow_start":0.1},"394":{"name_en":"Soreq-Yavne","name_he":"שורק-יבנה","lat":31.8698406219482,"lon":34.7523994445801,"zoom":1,"threshold":[26,56,74,91,109,120],"envista_id":[74,121,259,188],"owner_id":2,"level_flow_start":0.1},"395":{"name_en":"Shillo-Up to diversion quarry","name_he":"שילה במעלה","lat":32.0707817077637,"lon":34.9624290466309,"zoom":1,"threshold":[18,52,85,130,187,247],"envista_id":[20,21,24,542],"owner_id":18,"level_flow_start":0.1},"436":{"name_en":"BeitZait","name_he":"מאגר בית זית","lat":31.7800197601318,"lon":35.1555709838867,"zoom":1,"threshold":[999,999,999,999,999,999],"envista_id":[22,188,23,null],"owner_id":2,"level_flow_start":0.1},"438":{"name_en":"Hula-Neot Mordechai","name_he":"ירדן-נאות מרדכי","lat":33.1629486083984,"lon":35.5980491638184,"zoom":1,"threshold":[999,999,999,999,999,999],"envista_id":[null,null,null,null],"owner_id":2,"level_flow_start":0.1},"439":{"name_en":"Hula connection canal","name_he":"ירדן-הטייה לתעלה מערבית","lat":33.110668182373,"lon":35.5860786437988,"zoom":1,"threshold":[999,999,999,999,999,999],"envista_id":[null,null,null,null],"owner_id":2,"level_flow_start":0.1},"441":{"name_en":"Dror","name_he":"דרור","lat":32.258129119873,"lon":34.8933792114258,"zoom":1,"threshold":[999,999,999,999,999,999],"envista_id":[null,null,null,null],"owner_id":22,"level_flow_start":0.1},"443":{"name_en":"Jordan-Beit Zera","name_he":"ירדן-בית זרע","lat":32.6904983520508,"lon":35.5682983398438,"zoom":1,"threshold":[999,999,999,999,999,999],"envista_id":[11,null,null,null],"owner_id":15,"level_flow_start":0.1},"450":{"name_en":"Nes Ziona","name_he":"נס ציונה","lat":31.9225997924805,"lon":34.7857513427734,"zoom":1,"threshold":[25,34,45,60,77,96],"envista_id":[74,121,259,54],"owner_id":2,"level_flow_start":0.1},"451":{"name_en":"Kishon - Ram On","name_he":"קישון - רם און","lat":32.5417518615723,"lon":35.2574005126953,"zoom":1,"threshold":[999,999,999,999,999,999],"envista_id":[67,224,16,null],"owner_id":22,"level_flow_start":0.01},"453":{"name_en":"Hilazon","name_he":"חילזון","lat":32.9005432128906,"lon":35.1100692749023,"zoom":0,"threshold":[999,999,999,999,999,999],"envista_id":[null,null,null,null],"owner_id":16,"level_flow_start":0.1},"454":{"name_en":"Hever","name_he":"חבר","lat":31.4098281860352,"lon":35.3691139221191,"zoom":0,"threshold":[999,999,999,999,999,999],"envista_id":[null,null,null,null],"owner_id":17,"level_flow_start":0.1},"455":{"name_en":"Nehustan New","name_he":"נחושתן","lat":29.7710342407227,"lon":34.9610748291016,"zoom":0,"threshold":[999,999,999,999,999,999],"envista_id":[null,null,null,null],"owner_id":13,"level_flow_start":0.1},"456":{"name_en":"Shita","name_he":"שיטה","lat":30.1403255462646,"lon":35.1458740234375,"zoom":0,"threshold":[999,999,999,999,999,999],"envista_id":[null,null,null,null],"owner_id":13,"level_flow_start":0.1},"457":{"name_en":"Nahalal Parshal","name_he":"נהלל פרשל","lat":32.7046852111816,"lon":35.1840476989746,"zoom":0,"threshold":[999,999,999,999,999,999],"envista_id":[null,null,null,null],"owner_id":22,"level_flow_start":0.1},"458":{"name_en":"Mazor","name_he":"מזור","lat":32.0808944702148,"lon":34.9051132202148,"zoom":0,"threshold":[999,999,999,999,999,999],"envista_id":[null,null,null,null],"owner_id":18,"level_flow_start":0.1},"459":{"name_en":"Glil-Yam","name_he":"גליל ים","lat":32.1549797058105,"lon":34.8248596191406,"zoom":0,"threshold":[999,999,999,999,999,999],"envista_id":[null,null,null,null],"owner_id":18,"level_flow_start":0.1},"460":{"name_en":"Tel Aviv Park (Pn)","name_he":"תל אביב פארק","lat":32.0999069213867,"lon":34.7987976074219,"zoom":0,"threshold":[999,999,999,999,999,999],"envista_id":[null,null,null,null],"owner_id":18,"level_flow_start":0.1},"461":{"name_en":"Shilon-Downstream","name_he":"שילה במורד הזרימה","lat":32.1095886230469,"lon":34.8992156982422,"zoom":0,"threshold":[999,999,999,999,999,999],"envista_id":[null,null,null,null],"owner_id":18,"level_flow_start":0.1},"462":{"name_en":"Galuyot","name_he":"גלויות","lat":32.0471839904785,"lon":34.7870979309082,"zoom":1,"threshold":[999,999,999,999,999,999],"envista_id":[null,null,null,null],"owner_id":18,"level_flow_start":2},"463":{"name_en":"Hahalacha","name_he":"ההלכה","lat":32.0897674560547,"lon":34.8005561828613,"zoom":1,"threshold":[999,999,999,999,999,999],"envista_id":[null,null,null,null],"owner_id":18,"level_flow_start":1},"464":{"name_en":"Mozes","name_he":"מוזס","lat":32.0759506225586,"lon":34.7939643859863,"zoom":0,"threshold":[999,999,999,999,999,999],"envista_id":[null,null,null,null],"owner_id":18,"level_flow_start":0.1},"465":{"name_en":"HaEla - Kiryat Malakhi","name_he":"האלה-כביש 3","lat":31.7339744567871,"lon":34.7582969665527,"zoom":0,"threshold":[999,999,999,999,999,999],"envista_id":[null,null,null,null],"owner_id":20,"level_flow_start":0.1},"466":{"name_en":"Harod Merhavia","name_he":"חרוד - מרחביה","lat":32.5724716186523,"lon":35.3265495300293,"zoom":0,"threshold":[999,999,999,999,999,999],"envista_id":[null,null,null,null],"owner_id":27,"level_flow_start":0.1},"467":{"name_en":"Harod Pardesim","name_he":"חרוד - פרדסים","lat":32.5435409545898,"lon":35.3990173339844,"zoom":0,"threshold":[999,999,999,999,999,999],"envista_id":[null,null,null,null],"owner_id":27,"level_flow_start":0.1},"468":{"name_en":"Hashiva","name_he":"השבעה","lat":32.6755294799805,"lon":35.4133758544922,"zoom":0,"threshold":[999,999,999,999,999,999],"envista_id":[null,null,null,null],"owner_id":27,"level_flow_start":0.1},"469":{"name_en":"Issachar","name_he":"יששכר - מולדת","lat":32.5865859985352,"lon":35.4511566162109,"zoom":0,"threshold":[999,999,999,999,999,999],"envista_id":[null,null,null,null],"owner_id":2,"level_flow_start":0.1},"471":{"name_en":"Shezafim","name_he":"שיזפים","lat":32.581859588623,"lon":35.3979682922363,"zoom":0,"threshold":[999,999,999,999,999,999],"envista_id":[null,null,null,null],"owner_id":27,"level_flow_start":0.1},"472":{"name_en":"Tavor Daburia","name_he":"תבור - דבורייה","lat":32.6696510314941,"lon":35.3655090332031,"zoom":0,"threshold":[999,999,999,999,999,999],"envista_id":[null,null,null,null],"owner_id":27,"level_flow_start":0.1},"473":{"name_en":"Ten Mills","name_he":"עשר תחנות רשות ניקוז","lat":32.1060981750488,"lon":34.8299140930176,"zoom":0,"threshold":[999,999,999,999,999,999],"envista_id":[null,null,null,null],"owner_id":2,"level_flow_start":0.1},"474":{"name_en":"Natbag","name_he":"נתבג","lat":32.0007972717285,"lon":34.8641662597656,"zoom":0,"threshold":[999,999,999,999,999,999],"envista_id":[null,null,null,null],"owner_id":18,"level_flow_start":0.1},"475":{"name_en":"Zippori Avokado","name_he":"ציפורי אבוקדו","lat":32.7764892578125,"lon":35.1392364501953,"zoom":0,"threshold":[999,999,999,999,999,999],"envista_id":[null,null,null,null],"owner_id":22,"level_flow_start":0.1},"476":{"name_en":"Emek Hazvaim","name_he":"עמק הצבאים","lat":31.7640247344971,"lon":35.1941032409668,"zoom":0,"threshold":[999,999,999,999,999,999],"envista_id":[null,null,null,null],"owner_id":24,"level_flow_start":0.1},"477":{"name_en":"Sde Nehemia","name_he":"שדה נחמיה","lat":33.1818428039551,"lon":35.6156921386719,"zoom":0,"threshold":[999,999,999,999,999,999],"envista_id":[null,null,null,null],"owner_id":2,"level_flow_start":0.1},"478":{"name_en":"SNIR","name_he":"שניר","lat":33.2385940551758,"lon":35.6243171691895,"zoom":0,"threshold":[999,999,999,999,999,999],"envista_id":[null,null,null,null],"owner_id":2,"level_flow_start":0.1},"479":{"name_en":"Amram","name_he":"עמרם","lat":29.6104393005371,"lon":34.9927101135254,"zoom":0,"threshold":[999,999,999,999,999,999],"envista_id":[null,null,null,null],"owner_id":2,"level_flow_start":0.03},"480":{"name_en":"Anva","name_he":"ענבה","lat":31.8999996185303,"lon":34.9300003051758,"zoom":1,"threshold":[7,17,20,24,30,36],"envista_id":[null,null,null,null],"owner_id":18,"level_flow_start":0.1},"481":{"name_en":"Azur-canal","name_he":"אזור-תעלה","lat":32.0227470397949,"lon":34.8097877502441,"zoom":1,"threshold":[20,30,38,47,54,75],"envista_id":[null,null,null,null],"owner_id":2,"level_flow_start":0.1},"482":{"name_en":"Yarden - Dgania","name_he":"ירדן דגניה","lat":32.7112350463867,"lon":35.5721282958984,"zoom":1,"threshold":[999,999,999,999,999,999],"envista_id":[null,null,null,null],"owner_id":2,"level_flow_start":0.1},"483":{"name_en":"Hevron","name_he":"נחל חברון","lat":31.3412055969238,"lon":34.9312782287598,"zoom":1,"threshold":[8,25,43,71,130,200],"envista_id":[null,null,null,null],"owner_id":1,"level_flow_start":0.1},"484":{"name_en":"Rafaim","name_he":"רפאים","lat":31.7472667694092,"lon":35.1824951171875,"zoom":1,"threshold":[20,27,31,36,46,52],"envista_id":[null,null,null,null],"owner_id":2,"level_flow_start":0.1},"485":{"name_en":"Yael-Shahamon","name_he":"נחל יעל - הר שחמון","lat":29.5863475799561,"lon":34.9417419433594,"zoom":1,"threshold":[999,999,999,999,999,999],"envista_id":[null,null,null,null],"owner_id":1,"level_flow_start":0.03},"486":{"name_en":"Soreq Bamaale","name_he":"שורק-מוצא","lat":31.8010673522949,"lon":35.1711311340332,"zoom":1,"threshold":[999,999,999,999,999,999],"envista_id":[null,null,null,null],"owner_id":2,"level_flow_start":0.1},"488":{"name_en":"Kishon Quarry 8146","name_he":"קישון-מחצבה ר.","lat":32.7212295532227,"lon":35.0972366333008,"zoom":1,"threshold":[999,999,999,999,999,999],"envista_id":[null,null,null,null],"owner_id":26,"level_flow_start":0.1},"489":{"name_en":"Shilo - Lod-Rosh HaAyin Highway","name_he":"שילה - כביש לוד-ראש העין","lat":32.0717887878418,"lon":34.946346282959,"zoom":1,"threshold":[999,999,999,999,999,999],"envista_id":[null,null,null,null],"owner_id":3,"level_flow_start":0.1},"490":{"name_en":"Oved-Yad Mordechai","name_he":"עובד - יד מרדכי","lat":31.5764865875244,"lon":34.5590476989746,"zoom":1,"threshold":[999,999,999,999,999,999],"envista_id":[null,null,null,null],"owner_id":2,"level_flow_start":0.1},"491":{"name_en":"Ashalim canal","name_he":"תעלת אשלים","lat":31.0184383392334,"lon":35.3550224304199,"zoom":1,"threshold":[999,999,999,999,999,999],"envista_id":[null,null,null,null],"owner_id":3,"level_flow_start":0.1},"492":{"name_en":"Tavor Ein Dor-6128","name_he":"תבור - עין דור","lat":32.6632804870605,"lon":35.4294090270996,"zoom":1,"threshold":[999,999,999,999,999,999],"envista_id":[null,null,null,null],"owner_id":27,"level_flow_start":0.1},"493":{"name_en":"Ashosh-Zuqim","name_he":"עשוש - צוקים","lat":30.5063400268555,"lon":35.1471633911133,"zoom":1,"threshold":[999,999,999,999,999,999],"envista_id":[null,null,null,null],"owner_id":2,"level_flow_start":0.1},"494":{"name_en":"Emeziahy-Tamar spr. upstream","name_he":"אמציהו- במעלה עין תמר","lat":30.9422988891602,"lon":35.3674087524414,"zoom":1,"threshold":[999,999,999,999,999,999],"envista_id":[null,null,null,null],"owner_id":2,"level_flow_start":0.1},"499":{"name_en":"Shikma-Erez","name_he":"שקמה -ארז","lat":31.5626125335693,"lon":34.5782699584961,"zoom":1,"threshold":[999,999,999,999,999,999],"envista_id":[null,null,null,null],"owner_id":2,"level_flow_start":0.1}},{"1":{"owner_code":"IMS","name":"השירות המטאורולוגי הישראלי"},"2":{"owner_code":"IHS","name":"השירות ההידרולוגי הישראלי"},"3":{"owner_code":"AGR","name":"משרד החקלאות"},"4":{"owner_code":"MEK","name":"מקורות"},"5":{"owner_code":"IAA","name":"רשות שדות התעופה"},"6":{"owner_code":"IGD","name":"איגוד ערים"},"7":{"owner_code":"ENV","name":"המשרד להגנת הסביבה"},"8":{"owner_code":"IEC","name":"חברת חשמל"},"9":{"owner_code":"PMD","name":"פלשתינאים"},"10":{"owner_code":"GSI","name":"המכון לסקר גאולוגי"},"11":{"owner_code":"RA","name":"רותם אמפרט"},"12":{"owner_code":"SWA","name":"רשות המים דרום"},"13":{"owner_code":"ASC","name":"המרכז למדע ערבה"},"14":{"owner_code":"DSF","name":"מפעלי ים המלח"},"15":{"owner_code":"DAK","name":"רשות המים כנרת"},"16":{"owner_code":"DAWG","name":"רשות ניקוז גליל מערבי"},"17":{"owner_code":"DADS","name":"רשות ניקוז ים המלח"},"18":{"owner_code":"DAY","name":"רשות ניקוז ירקון"},"19":{"owner_code":"DAC","name":"רשות ניקוז כרמל"},"20":{"owner_code":"DASL","name":"רשות ניקוז לכיש"},"21":{"owner_code":"DASH","name":"רשות ניקוז שרון"},"22":{"owner_code":"SERS","name":"התחנה לחקר הסחף- משרד החקלאות"},"23":{"owner_code":"DFRC","name":"המכון לחקר שיטפונות במדבר"},"24":{"owner_code":"UNIH","name":"האוניברסיטה העברית"},"25":{"owner_code":"IHS1","name":"ניטור החולה "},"26":{"owner_code":"DAK","name":"רשות ניקוז קישון  "},"27":{"owner_code":"DASJ","name":"רשות ניקוז – ירדן דרומי"}},"תנאי שימוש והגבלת אחריות: הנתונים המוצגים ע\"י רשות המים והביוב בעמוד זה (להלן-\"המידע\" ו\"הרשות\" בהתאמה), הם מידע גולמי שלא עבר בקרה או עיבוד כלשהו. כך, עוצמות הזרימה המוצגות בדף התצפיות, הן מדידות הידרולוגיות ואינן מתורגמות לרמת סיכון ואופן היערכות. ומכאן שהשימוש במידע או הסקת מסקנות ממנו, הן באחריותו הבלעדית של המשתמש, על כל המשתמע מכך.","הערך המוצג בגרף הינו גובה מים היחסי לנקודה קבועה בשטח האתר ולא לבסיס הזרימה."]
